{
    "type": "FeatureCollection",
    "features": [
        {
            "type": "Feature",
            "properties": {
                "name": "N&S Oregon, Inc.",
                "address": "36 NW A Street, Madras, OR 97741",
                "type": "Case IH Dealer",
                "phone": "(541) 475-2253"
            },
            "geometry": {
                "type": "Point",
                "coordinates": [
                    -121.1300582,
                    44.637498
                ]
            }
        },
        {
            "type": "Feature",
            "properties": {
                "name": "Morrow Cnty Grain",
                "address": "350 Main Street, Lexington, OR 97839",
                "type": "Case IH Dealer",
                "phone": "(541) 989-8221"
            },
            "geometry": {
                "type": "Point",
                "coordinates": [
                    -119.6889874,
                    45.44889980000001
                ]
            }
        },
        {
            "type": "Feature",
            "properties": {
                "name": "N&S Oregon, Inc.",
                "address": "230 Sommerville Avenue, Harrisburg, OR 97446",
                "type": "Case IH Dealer",
                "phone": "(541) 995-2262"
            },
            "geometry": {
                "type": "Point",
                "coordinates": [
                    -123.1715637,
                    44.2640548
                ]
            }
        },
        {
            "type": "Feature",
            "properties": {
                "name": "N&S Oregon, Inc.",
                "address": "2929 No. Pacific Highway, Woodburn, OR 97071",
                "type": "Case IH Dealer",
                "phone": "(503) 981-0151"
            },
            "geometry": {
                "type": "Point",
                "coordinates": [
                    -122.8267381,
                    45.157347
                ]
            }
        },
        {
            "type": "Feature",
            "properties": {
                "name": "N&S Oregon, Inc.",
                "address": "9055 Rickreall Road, Rickreall, OR 97371",
                "type": "Case IH Dealer",
                "phone": "(503) 363-2332"
            },
            "geometry": {
                "type": "Point",
                "coordinates": [
                    -123.2149662,
                    44.9294291
                ]
            }
        },
        {
            "type": "Feature",
            "properties": {
                "name": "N&S Oregon, Inc.",
                "address": "185 W. Main Extension, Hillsboro, OR 97123",
                "type": "Case IH Dealer",
                "phone": "(503) 648-4178"
            },
            "geometry": {
                "type": "Point",
                "coordinates": [
                    -123.0029756,
                    45.5213949
                ]
            }
        },
        {
            "type": "Feature",
            "properties": {
                "name": "Burks Tractor Co LLC",
                "address": "220 Farmway Road, Caldwell, ID 83605",
                "type": "Case IH Dealer",
                "phone": "(208) 466-7875"
            },
            "geometry": {
                "type": "Point",
                "coordinates": [
                    -116.7124132,
                    43.6680801
                ]
            }
        },
        {
            "type": "Feature",
            "properties": {
                "name": "N&S North, Inc.",
                "address": "827 North Tehama, Willows, CA 95988",
                "type": "Case IH Dealer",
                "phone": "(530) 934-3382"
            },
            "geometry": {
                "type": "Point",
                "coordinates": [
                    -122.1940062,
                    39.5307201
                ]
            }
        },
        {
            "type": "Feature",
            "properties": {
                "name": "Burks Tractor Co",
                "address": "3140 Kimberly Rd., Twin Falls, ID 83301",
                "type": "Case IH Dealer",
                "phone": "(208) 733-5543"
            },
            "geometry": {
                "type": "Point",
                "coordinates": [
                    -114.4204132,
                    42.5462533
                ]
            }
        },
        {
            "type": "Feature",
            "properties": {
                "name": "N&S North, Inc.",
                "address": "1960 Hwy 20, Colusa, CA 95932",
                "type": "Case IH Dealer",
                "phone": "(530) 458-2166"
            },
            "geometry": {
                "type": "Point",
                "coordinates": [
                    -122.0350816,
                    39.1980103
                ]
            }
        },
        {
            "type": "Feature",
            "properties": {
                "name": "N&S North, Inc.",
                "address": "3056 Colusa Hwy, Yuba City, CA 95993",
                "type": "Case IH Dealer",
                "phone": "(530) 923-7675"
            },
            "geometry": {
                "type": "Point",
                "coordinates": [
                    -121.6732488,
                    39.1407104
                ]
            }
        },
        {
            "type": "Feature",
            "properties": {
                "name": "Farmers Equipment Co",
                "address": "17893 State Route 20, Burlington, WA 98233-9623",
                "type": "Case IH Dealer",
                "phone": "(360) 757-6081"
            },
            "geometry": {
                "type": "Point",
                "coordinates": [
                    -122.3610046,
                    48.4651766
                ]
            }
        },
        {
            "type": "Feature",
            "properties": {
                "name": "Titan Application",
                "address": "199 West 2Nd North, Burley, ID 83318",
                "type": "Case IH Dealer",
                "phone": "(208) 678-3589"
            },
            "geometry": {
                "type": "Point",
                "coordinates": [
                    -113.7963068,
                    42.5569912
                ]
            }
        },
        {
            "type": "Feature",
            "properties": {
                "name": "Titan Machinery Inc.",
                "address": "913 South Oneida, Rupert, ID 83350",
                "type": "Case IH Dealer",
                "phone": "(208) 436-3191"
            },
            "geometry": {
                "type": "Point",
                "coordinates": [
                    -113.6866151,
                    42.6047156
                ]
            }
        },
        {
            "type": "Feature",
            "properties": {
                "name": "Farmers Equipment Co",
                "address": "410 19Th Street, Lynden, WA 98264",
                "type": "Case IH Dealer",
                "phone": "(360) 354-4451"
            },
            "geometry": {
                "type": "Point",
                "coordinates": [
                    -122.4792478,
                    48.9416191
                ]
            }
        },
        {
            "type": "Feature",
            "properties": {
                "name": "Torgerson's, LLC",
                "address": "7580 Hwy 10 West, Missoula, MT 59808",
                "type": "Case IH Dealer",
                "phone": "(406) 543-7782"
            },
            "geometry": {
                "type": "Point",
                "coordinates": [
                    -114.1250369,
                    46.9427429
                ]
            }
        },
        {
            "type": "Feature",
            "properties": {
                "name": "Titan Machinery Inc.",
                "address": "3102 Rockland Highway, American Falls, ID 83211",
                "type": "Case IH Dealer",
                "phone": "(208) 226-5209"
            },
            "geometry": {
                "type": "Point",
                "coordinates": [
                    -112.8799936,
                    42.746751
                ]
            }
        },
        {
            "type": "Feature",
            "properties": {
                "name": "N & S Tractor",
                "address": "1340 W Charter Way, Stockton, CA 95206",
                "type": "Case IH Dealer",
                "phone": "(209) 944-5500"
            },
            "geometry": {
                "type": "Point",
                "coordinates": [
                    -121.3055821,
                    37.9330316
                ]
            }
        },
        {
            "type": "Feature",
            "properties": {
                "name": "Titan Machinery Inc.",
                "address": "404 W. Highway 39, Blackfoot, ID 83221",
                "type": "Case IH Dealer",
                "phone": "(208) 785-0008"
            },
            "geometry": {
                "type": "Point",
                "coordinates": [
                    -112.3768551,
                    43.1994495
                ]
            }
        },
        {
            "type": "Feature",
            "properties": {
                "name": "Torgerson's, LLC",
                "address": "3245 Highway 93 S, Kalispell, MT 59901",
                "type": "Case IH Dealer",
                "phone": "(406) 407-7230"
            },
            "geometry": {
                "type": "Point",
                "coordinates": [
                    -114.2865126,
                    48.1513058
                ]
            }
        },
        {
            "type": "Feature",
            "properties": {
                "name": "Titan Machinery Inc.",
                "address": "5666 North Yellowstone Highway, Idaho Falls, ID 83401",
                "type": "Case IH Dealer",
                "phone": "(208) 523-5455"
            },
            "geometry": {
                "type": "Point",
                "coordinates": [
                    -111.9631297,
                    43.54661189999999
                ]
            }
        },
        {
            "type": "Feature",
            "properties": {
                "name": "Titan Machinery Inc.",
                "address": "95 Airport Road, Rexburg, ID 83440",
                "type": "Case IH Dealer",
                "phone": "(208) 359-8000"
            },
            "geometry": {
                "type": "Point",
                "coordinates": [
                    -111.8091702,
                    43.8279218
                ]
            }
        },
        {
            "type": "Feature",
            "properties": {
                "name": "N & S Tractor",
                "address": "1215 W. Glenwood Avenue, Turlock, CA 95380",
                "type": "Case IH Dealer",
                "phone": "(209) 634-1777"
            },
            "geometry": {
                "type": "Point",
                "coordinates": [
                    -120.8605599,
                    37.4776596
                ]
            }
        },
        {
            "type": "Feature",
            "properties": {
                "name": "N & S Tractor Co.",
                "address": "600 S State Highway 59, Merced, CA 95341-0910",
                "type": "Case IH Dealer",
                "phone": "(209) 383-5888"
            },
            "geometry": {
                "type": "Point",
                "coordinates": [
                    -120.4997134,
                    37.294617
                ]
            }
        },
        {
            "type": "Feature",
            "properties": {
                "name": "Valley Implement Co.",
                "address": "213 West 800 North, Preston, ID 83263",
                "type": "Case IH Dealer",
                "phone": "(208) 852-0430"
            },
            "geometry": {
                "type": "Point",
                "coordinates": [
                    -111.8829879,
                    42.1100311
                ]
            }
        },
        {
            "type": "Feature",
            "properties": {
                "name": "Torgerson's, LLC",
                "address": "15 Hydraulic Lane, East Helena, MT 59635",
                "type": "Case IH Dealer",
                "phone": "(406) 393-0007"
            },
            "geometry": {
                "type": "Point",
                "coordinates": [
                    -111.9155461,
                    46.5896567
                ]
            }
        },
        {
            "type": "Feature",
            "properties": {
                "name": "N & S Tractor",
                "address": "2173 Blossom Street, Dos Palos, CA 93620",
                "type": "Case IH Dealer",
                "phone": "(209) 392-2161"
            },
            "geometry": {
                "type": "Point",
                "coordinates": [
                    -120.6302814,
                    36.985726
                ]
            }
        },
        {
            "type": "Feature",
            "properties": {
                "name": "Torgerson's, LLC",
                "address": "5900 Jackrabbit Lane, Belgrade, MT 59714",
                "type": "Case IH Dealer",
                "phone": "(406) 388-8500"
            },
            "geometry": {
                "type": "Point",
                "coordinates": [
                    -111.1833395,
                    45.75595
                ]
            }
        },
        {
            "type": "Feature",
            "properties": {
                "name": "Torgerson's, LLC",
                "address": "116 MT Highway 220, Choteau, MT 59422",
                "type": "Case IH Dealer",
                "phone": "(406) 201-8055"
            },
            "geometry": {
                "type": "Point",
                "coordinates": [
                    -112.1640576,
                    47.8153055
                ]
            }
        },
        {
            "type": "Feature",
            "properties": {
                "name": "Sonsray Machinery",
                "address": "4342 East Absolut Ave., Fresno, CA 93725",
                "type": "Case IH Dealer",
                "phone": "(559) 834-2277"
            },
            "geometry": {
                "type": "Point",
                "coordinates": [
                    -119.7118827,
                    36.6526409
                ]
            }
        },
        {
            "type": "Feature",
            "properties": {
                "name": "Sonsray Machinery",
                "address": "1081 Harkins Road, Salinas, CA 93901",
                "type": "Case IH Dealer",
                "phone": "(831) 240-0378"
            },
            "geometry": {
                "type": "Point",
                "coordinates": [
                    -121.6273739,
                    36.6512582
                ]
            }
        },
        {
            "type": "Feature",
            "properties": {
                "name": "Torgerson's, LLC",
                "address": "17 Liberty Ln, Great Falls, MT 59404",
                "type": "Case IH Dealer",
                "phone": "(406) 453-0010"
            },
            "geometry": {
                "type": "Point",
                "coordinates": [
                    -111.4814027,
                    47.548261
                ]
            }
        },
        {
            "type": "Feature",
            "properties": {
                "name": "Sonsray Machinery",
                "address": "21276 Lassen Ave., Five Points, CA 93624",
                "type": "Case IH Dealer",
                "phone": "(559) 884-2431"
            },
            "geometry": {
                "type": "Point",
                "coordinates": [
                    -120.1026727,
                    36.4254595
                ]
            }
        },
        {
            "type": "Feature",
            "properties": {
                "name": "Torgerson's, LLC",
                "address": "4701 River Drive North, Great Falls, MT 59405",
                "type": "Case IH Dealer",
                "phone": "(406) 453-1453"
            },
            "geometry": {
                "type": "Point",
                "coordinates": [
                    -111.2267015,
                    47.5213177
                ]
            }
        },
        {
            "type": "Feature",
            "properties": {
                "name": "Torgerson's, LLC",
                "address": "142 US Highway 2, Ethridge, MT 59435",
                "type": "Case IH Dealer",
                "phone": "(406) 434-2222"
            },
            "geometry": {
                "type": "Point",
                "coordinates": [
                    -112.1251867,
                    48.558066
                ]
            }
        },
        {
            "type": "Feature",
            "properties": {
                "name": "Stratford Tractor",
                "address": "20280 Main Street, Stratford, CA 93266",
                "type": "Case IH Dealer",
                "phone": "(559) 947-3301"
            },
            "geometry": {
                "type": "Point",
                "coordinates": [
                    -119.8222876,
                    36.1899233
                ]
            }
        },
        {
            "type": "Feature",
            "properties": {
                "name": "Torgerson's, LLC",
                "address": "90 Cottonwood Creek Road, Lewistown, MT 59457",
                "type": "Case IH Dealer",
                "phone": "(406) 538-8795"
            },
            "geometry": {
                "type": "Point",
                "coordinates": [
                    -109.5040802,
                    47.0543539
                ]
            }
        },
        {
            "type": "Feature",
            "properties": {
                "name": "Sonsray Machinery",
                "address": "19474 Industry Parkway Dr., Bakersfield, CA 93308",
                "type": "Case IH Dealer",
                "phone": "(661) 327-1641"
            },
            "geometry": {
                "type": "Point",
                "coordinates": [
                    -119.0778322,
                    35.4427533
                ]
            }
        },
        {
            "type": "Feature",
            "properties": {
                "name": "Torgerson's, LLC",
                "address": "5022 Laurel Road, Billings, MT 59101",
                "type": "Case IH Dealer",
                "phone": "(406) 252-8614"
            },
            "geometry": {
                "type": "Point",
                "coordinates": [
                    -108.5401527,
                    45.7625982
                ]
            }
        },
        {
            "type": "Feature",
            "properties": {
                "name": "Torgerson's, LLC",
                "address": "4180 US Highway 2 W, Havre, MT 59501",
                "type": "Case IH Dealer",
                "phone": "(406) 265-5887"
            },
            "geometry": {
                "type": "Point",
                "coordinates": [
                    -109.7455214,
                    48.5546495
                ]
            }
        },
        {
            "type": "Feature",
            "properties": {
                "name": "Torgerson's, LLC",
                "address": "4 Old Highway 10, Hysham, MT 59038",
                "type": "Case IH Dealer",
                "phone": "(406) 342-5571"
            },
            "geometry": {
                "type": "Point",
                "coordinates": [
                    -107.2258423,
                    46.2941267
                ]
            }
        },
        {
            "type": "Feature",
            "properties": {
                "name": "Morrow Cnty Grain",
                "address": "71025 Old Highway 97, Wasco, OR 97065",
                "type": "Case IH Dealer",
                "phone": ""
            },
            "geometry": {
                "type": "Point",
                "coordinates": [
                    -120.7103882,
                    45.6025539
                ]
            }
        },
        {
            "type": "Feature",
            "properties": {
                "name": "Smith Valley Garage",
                "address": "890 West Bridge Street, Yerington, NV 89447",
                "type": "Case IH Dealer",
                "phone": ""
            },
            "geometry": {
                "type": "Point",
                "coordinates": [
                    -119.1807011,
                    38.9836949
                ]
            }
        },
        {
            "type": "Feature",
            "properties": {
                "name": "Smith Valley Garage",
                "address": "2828 Highway 208, Wellington, NV 89444",
                "type": "Case IH Dealer",
                "phone": ""
            },
            "geometry": {
                "type": "Point",
                "coordinates": [
                    -119.3775039,
                    38.7572219
                ]
            }
        },
        {
            "type": "Feature",
            "properties": {
                "name": "Farmers Equipment Co",
                "address": "17893 State Route 20, Burlington, WA 98233",
                "type": "Case IH Dealer",
                "phone": ""
            },
            "geometry": {
                "type": "Point",
                "coordinates": [
                    -122.3610046,
                    48.4651766
                ]
            }
        },
        {
            "type": "Feature",
            "properties": {
                "name": "Central Machinery",
                "address": "207 West South Hill Road, Sunnyside, WA 98944",
                "type": "Case IH Dealer",
                "phone": ""
            },
            "geometry": {
                "type": "Point",
                "coordinates": [
                    -120.0225262,
                    46.3088941
                ]
            }
        },
        {
            "type": "Feature",
            "properties": {
                "name": "Central Machinery",
                "address": "1802 E. James St., Pasco, WA 99301",
                "type": "Case IH Dealer",
                "phone": ""
            },
            "geometry": {
                "type": "Point",
                "coordinates": [
                    -119.07889,
                    46.2475566
                ]
            }
        },
        {
            "type": "Feature",
            "properties": {
                "name": "Jti Colfax",
                "address": "304 N 9th Ave, Walla Walla, WA 99362",
                "type": "Case IH Dealer",
                "phone": ""
            },
            "geometry": {
                "type": "Point",
                "coordinates": [
                    -118.3494562,
                    46.0662034
                ]
            }
        },
        {
            "type": "Feature",
            "properties": {
                "name": "Farm & Home Supply",
                "address": "643 Main Street, Pomeroy, WA 99347",
                "type": "Case IH Dealer",
                "phone": ""
            },
            "geometry": {
                "type": "Point",
                "coordinates": [
                    -117.6024863,
                    46.475018
                ]
            }
        },
        {
            "type": "Feature",
            "properties": {
                "name": "Odessa Trading Co",
                "address": "112 So. Division, Odessa, WA 99159",
                "type": "Case IH Dealer",
                "phone": ""
            },
            "geometry": {
                "type": "Point",
                "coordinates": [
                    -118.6911323,
                    47.3326933
                ]
            }
        },
        {
            "type": "Feature",
            "properties": {
                "name": "Jti Colfax",
                "address": "425 Walla Walla Hwy, Colfax, WA 99111",
                "type": "Case IH Dealer",
                "phone": ""
            },
            "geometry": {
                "type": "Point",
                "coordinates": [
                    -117.3702979,
                    46.8905726
                ]
            }
        },
        {
            "type": "Feature",
            "properties": {
                "name": "Central Machinery",
                "address": "1201 E. Yonezawa Blvd., Moses Lake, WA 98837",
                "type": "Case IH Dealer",
                "phone": ""
            },
            "geometry": {
                "type": "Point",
                "coordinates": [
                    -119.2540278,
                    47.1040871
                ]
            }
        },
        {
            "type": "Feature",
            "properties": {
                "name": "Jti Colfax",
                "address": "950 E. Broadway Avenue, Moses Lake, WA 98837",
                "type": "Case IH Dealer",
                "phone": ""
            },
            "geometry": {
                "type": "Point",
                "coordinates": [
                    -119.2668847,
                    47.1375982
                ]
            }
        },
        {
            "type": "Feature",
            "properties": {
                "name": "Odessa Trading Co",
                "address": "36959 Road J.5 North East, Coulee City, WA 99115",
                "type": "Case IH Dealer",
                "phone": ""
            },
            "geometry": {
                "type": "Point",
                "coordinates": [
                    -119.2619492,
                    47.62588479999999
                ]
            }
        },
        {
            "type": "Feature",
            "properties": {
                "name": "Valley Implement Co.",
                "address": "107 N. Main Street, Grace, ID 83241",
                "type": "Case IH Dealer",
                "phone": ""
            },
            "geometry": {
                "type": "Point",
                "coordinates": [
                    -111.7308765,
                    42.5779277
                ]
            }
        },
        {
            "type": "Feature",
            "properties": {
                "name": "Torgerson's, LLC",
                "address": "622 Broadway, Denton, MT 59430",
                "type": "Case IH Dealer",
                "phone": ""
            },
            "geometry": {
                "type": "Point",
                "coordinates": [
                    -109.947896,
                    47.3192192
                ]
            }
        },
        {
            "type": "Feature",
            "properties": {
                "name": "Torgerson's, LLC",
                "address": "1728 Old Hardin Road, Billings, MT 59101",
                "type": "Case IH Dealer",
                "phone": ""
            },
            "geometry": {
                "type": "Point",
                "coordinates": [
                    -108.4405822,
                    45.80086420000001
                ]
            }
        },
        {
            "type": "Feature",
            "properties": {
                "name": "Musselshell Valley",
                "address": "418 Main Street, Roundup, MT 59072",
                "type": "Case IH Dealer",
                "phone": ""
            },
            "geometry": {
                "type": "Point",
                "coordinates": [
                    -108.5414647,
                    46.4455182
                ]
            }
        },
        {
            "type": "Feature",
            "properties": {
                "name": "Tri-County Impl Inc",
                "address": "2429 W Holly Street, Sidney, MT 59270",
                "type": "Case IH Dealer",
                "phone": ""
            },
            "geometry": {
                "type": "Point",
                "coordinates": [
                    -104.1862229,
                    47.7182335
                ]
            }
        },
        {
            "type": "Feature",
            "properties": {
                "name": "Border Plains Equip.",
                "address": "340 Highway 5 East, Scobey, MT 59263",
                "type": "Case IH Dealer",
                "phone": ""
            },
            "geometry": {
                "type": "Point",
                "coordinates": [
                    -105.3456216,
                    48.7998768
                ]
            }
        },
        {
            "type": "Feature",
            "properties": {
                "name": "Border Plains Equip.",
                "address": "54240 Us Highway 2, Glasgow, MT 59230",
                "type": "Case IH Dealer",
                "phone": ""
            },
            "geometry": {
                "type": "Point",
                "coordinates": [
                    -106.6253227,
                    48.1947967
                ]
            }
        },
        {
            "type": "Feature",
            "properties": {
                "name": "Wilkinson Intl, Inc.",
                "address": "1207 E. Kentucky Ave., Woodland, CA 95776",
                "type": "Case IH Dealer",
                "phone": ""
            },
            "geometry": {
                "type": "Point",
                "coordinates": [
                    -121.763642,
                    38.6924076
                ]
            }
        },
        {
            "type": "Feature",
            "properties": {
                "name": "Linder Equipment Co.",
                "address": "311 East Kern Avenue, Tulare, CA 93274",
                "type": "Case IH Dealer",
                "phone": ""
            },
            "geometry": {
                "type": "Point",
                "coordinates": [
                    -119.34412,
                    36.2066771
                ]
            }
        },
        {
            "type": "Feature",
            "properties": {
                "name": "Exeter Mercantile Co",
                "address": "100 South D St., Exeter, CA 93221",
                "type": "Case IH Dealer",
                "phone": ""
            },
            "geometry": {
                "type": "Point",
                "coordinates": [
                    -119.1397837,
                    36.2962321
                ]
            }
        },
        {
            "type": "Feature",
            "properties": {
                "name": "Sonsray Machinery",
                "address": "10950 South Norwalk Blvd, Santa Fe Springs, CA 90670",
                "type": "Case IH Dealer",
                "phone": ""
            },
            "geometry": {
                "type": "Point",
                "coordinates": [
                    -118.0720637,
                    33.932114
                ]
            }
        },
        {
            "type": "Feature",
            "properties": {
                "name": "Sonsray Machinery",
                "address": "23935 Madison St., Torrance, CA 90505",
                "type": "Case IH Dealer",
                "phone": ""
            },
            "geometry": {
                "type": "Point",
                "coordinates": [
                    -118.3493106,
                    33.8073477
                ]
            }
        },
        {
            "type": "Feature",
            "properties": {
                "name": "Torgerson's, LLC",
                "address": "54321 Us Hwy 2 East, Glasgow, MT 59230",
                "type": "Case IH Dealer",
                "phone": ""
            },
            "geometry": {
                "type": "Point",
                "coordinates": [
                    -106.6046888,
                    48.1908154
                ]
            }
        },
        {
            "type": "Feature",
            "properties": {
                "name": "Torgerson's, LLC",
                "address": "117 Pleasant Street, Miles City, MT 59301",
                "type": "Case IH Dealer",
                "phone": ""
            },
            "geometry": {
                "type": "Point",
                "coordinates": [
                    -105.8564316,
                    46.4057624
                ]
            }
        }
    ]
}